{"1":{"id":"1","name":"Тестовая заявка №1","users":["3"],"createTime":1498386283327,"beginDate":"26.06.2017","note":"","status":1,"smsList":[[{"id":"31","hours":"07","minutes":"00"},{"id":"32","hours":"09","minutes":"00"},{"id":"33","hours":"11","minutes":"00"},{"id":"34","hours":"13","minutes":"00"},{"id":"35","hours":"15","minutes":"00"},{"id":"36","hours":"18","minutes":"00"}]]},"2":{"id":"2","name":"Тестовая заявка №2","users":["3"],"createTime":1498386283327,"beginDate":"26.06.2017","note":"","status":1,"smsList":[[{"id":"31","hours":"07","minutes":"00"},{"id":"32","hours":"09","minutes":"00"},{"id":"33","hours":"11","minutes":"00"},{"id":"34","hours":"13","minutes":"00"},{"id":"35","hours":"15","minutes":"00"},{"id":"36","hours":"18","minutes":"00"}],[{"id":"31","hours":"07","minutes":"00"},{"id":"32","hours":"09","minutes":"00"},{"id":"33","hours":"11","minutes":"00"},{"id":"34","hours":"13","minutes":"00"},{"id":"35","hours":"15","minutes":"00"},{"id":"36","hours":"18","minutes":"00"}]]},"3":{"name":"Новая заявка","users":["1"],"beginDate":"16.07.2017","note":"","smsList":[[{"id":"1","hours":"00","minutes":"00"}],[{"id":"1","hours":"00","minutes":"00"}]],"id":3,"status":1,"createTime":1500209864310},"4":{"name":"Новая заявка 5","users":["1","2"],"beginDate":"16.07.2017","note":"123","smsList":[[{"id":"1","hours":"00","minutes":"00"}],[],[],[],[],[],[],[],[],[{"id":"1","hours":"00","minutes":"00"}]],"id":4,"status":1,"createTime":1500210101052}}